[{"name":"设计笔记","site":"https://yaoyuan.vip","avatar":"/images/Avatar.jpg","message":{"address":"台湾","lat":121.39242,"lng":25.06068,"type":true}},{"name":"姚远","site":"https://yaoyuan.vip","avatar":"/images/Avatar.jpg","message":{"lat":108.88955,"lng":34.23116,"address":"西安","type":true}},{"name":"中国服装科创研究院","site":"https://yaoyuan.vip","avatar":"/images/Avatar.jpg","message":{"lat":120.30828,"lng":30.38964,"address":"杭州","type":true}},{"name":"济南某科技园区","site":"https://yaoyuan.vip","avatar":"/images/Avatar.jpg","message":{"lat":117.12467,"lng":36.65748,"address":"济南","type":false}},{"name":"北京某科技园区","site":"https://yaoyuan.vip","avatar":"/images/Avatar.jpg","message":{"address":"北京","lat":116.40534,"lng":39.91978,"type":false}},{"name":"银川某科技园区","site":"https://yaoyuan.vip","avatar":"/images/Avatar.jpg","message":{"lat":106.23677,"lng":38.49246,"address":"银川","type":false}},{"name":"重庆某科技园区","site":"https://yaoyuan.vip","avatar":"/images/Avatar.jpg","message":{"lat":106.55441,"lng":29.55542,"address":"重庆","type":false}},{"name":"南昌某科技园区","site":"https://yaoyuan.vip","avatar":"/images/Avatar.jpg","message":{"lat":115.86228,"lng":28.68895,"address":"南昌","type":false}},{"name":"南京某科技园区","site":"https://yaoyuan.vip","avatar":"/images/Avatar.jpg","message":{"lat":118.803,"lng":32.06514,"address":"南京","type":false}}]