[{"name":"yaoyuan","site":"https://yaoyuan.vip","avatar":"/images/Avatar.jpg","message":{"lat":108.88955,"lng":34.23116,"address":"西安","type":true}},{"name":"设计笔记","site":"https://biji.io","avatar":"https://picsum.photos/500/500","message":{"lat":121.480203,"lng":31.236245,"address":"上海","type":true}},{"name":"Jdeal","site":"https://www.jdeal.cn","avatar":"https://picsum.photos/300/300","message":{"lat":120.318627,"lng":31.497471,"address":"无锡","type":true}},{"name":"MJ's Blog","site":"https://blog.justlovesmile.top","avatar":"https://npm.elemecdn.com/justlovesmile-img/logo.jpg","message":{"lat":118.773577,"lng":32.076813,"address":"江苏","type":true}},{"name":"风记星辰","site":"https://www.thyuu.com","avatar":"https://std.thyuu.com/logo.webp","message":{"lat":123.467071,"lng":41.693096,"address":"沈阳","type":true}},{"name":"小小的小","site":"https://www.one21.cn","avatar":"https://cravatar.cn/avatar/7f037a4674a363c65e07b1f2853091a9?s=96&d=mm&r=g","message":{"lat":104.073463,"lng":30.614598,"address":"四川","type":true}},{"name":"番茄鱼","site":"https://dyfa.top","avatar":"https://cravatar.cn/avatar/80a023e11167a78a35f72ef4dd0a48f4?s=100&r=G&d=mm","message":{"lat":104.073463,"lng":30.614598,"address":"四川","type":true}},{"name":"星日语","avatar":"https://api.iconify.design/line-md:sunny-outline-twotone-loop.svg?color=%23eb4600","site":"https://weekdaycare.cn","description":"星语日点灯","message":{"lat":113.586015,"lng":34.773519,"address":"未知","type":true}},{"name":"Jay 出","avatar":"https://tgcsblog.top/img/myavatar.jpg","site":"https://tgcsblog.top","description":"技术、艺术、运动一个都不能少。","message":{"lat":106.552688,"lng":29.556178,"address":"重庆","type":true}},{"name":"杂谈漫话小站","avatar":"https://www.danilelxp.com/wp-content/uploads/2020/10/JiuGoe.jpeg","site":"https://www.danilelxp.com","description":"Face the Music","message":{"lat":113.636636,"lng":34.755937,"address":"河南","type":true}},{"name":"Kam","avatar":"https://staticfile.run/avatar/kam.jpg","site":"https://kam.space/","description":"锦的朋友圈","message":{"lat":119.979184,"lng":31.791,"address":"常州","type":true}},{"name":"2BROEAR","avatar":"https://img.2broear.com/2broear.png","site":"https://blog.2broear.com","description":"他说目前不再接受友链，如若喜欢也可留下链接，待查看后再做回复。","message":{"lat":0,"lng":30,"address":"不知道","type":true}},{"name":"吕楪","avatar":"https://pic.imgdb.cn/item/63e38acc4757feff3372eb7e.webp","site":"https://irithys.com","description":"吕楪在记录自己的生活","message":{"lat":108.945315,"lng":34.381835,"address":"西安","type":true}},{"name":"博客录","avatar":"https://boke.lu/logo.png","site":"https://boke.lu","description":"boke.lu · 博客收录展示平台~","message":{"lat":116.403039,"lng":39.916016,"address":"西安","type":true}},{"name":"Echo 的小窝","avatar":"https://yy.liveout.cn/photo/photo2.jpg","site":"https://www.liveout.cn/","description":"漂泊于互联中的一个小窝","message":{"lat":116.408,"lng":39.912,"address":"西安","type":true}},{"name":"Error715’s Blog","avatar":"https://mblog.error715.love/wp-content/uploads/2023/04/logo.png","site":"https://mblog.error715.love/","description":"","message":{"lat":116.404,"lng":39.915,"address":"西安","type":true}},{"name":"海底捞里没有鱼","avatar":"https://bu.dusays.com/2023/06/10/648499e1299d0.jpg","site":"https://smileszh.cn","description":"平安喜乐，万事胜意","message":{"lat":117.404,"lng":39.915,"address":"西安","type":true}},{"name":"CCstyle","avatar":"https://s1.ax1x.com/2022/12/09/zW3vTK.jpg","site":"https://www.sitehost.cn","description":"CCstyle的blog","message":{"lat":116.404,"lng":38.915,"address":"西安","type":true}},{"name":"Anjhon’s blog","avatar":"https://s2.loli.net/2023/05/16/MdciSXAbrEx3LW9.jpg","site":"https://www.anjhon.top/","description":"但知行好事，莫要问前程","message":{"lat":116.804,"lng":39.115,"address":"西安","type":true}},{"name":"REAI","avatar":"https://q1.qlogo.cn/g?b=qq&nk=2877406366&s=640","site":"http://blogcn.ml","description":" 热爱漫无边际，生活自有分寸！","message":{"lat":116.404,"lng":39.915,"address":"西安","type":true}}]